[{"bonus": false, "contract_name": "Dublin", "available_bikes": 24, "status": "OPEN", "banking": true, "position": {"lat": 53.349562, "lng": -6.278198}, "available_bike_stands": 6, "last_update": 1458545354000, "bike_stands": 30, "number": 42, "name": "SMITHFIELD NORTH", "address": "Smithfield North"}, {"bonus": false, "contract_name": "Dublin", "available_bikes": 16, "status": "OPEN", "banking": true, "position": {"lat": 53.353462, "lng": -6.265305}, "available_bike_stands": 4, "last_update": 1458545284000, "bike_stands": 20, "number": 30, "name": "PARNELL SQUARE NORTH", "address": "Parnell Square North"}, {"bonus": false, "contract_name": "Dublin", "available_bikes": 8, "status": "OPEN", "banking": true, "position": {"lat": 53.344304, "lng": -6.250427}, "available_bike_stands": 22, "last_update": 1458545160000, "bike_stands": 30, "number": 32, "name": "PEARSE STREET", "address": "Pearse Street"}, {"bonus": false, "contract_name": "Dublin", "available_bikes": 8, "status": "OPEN", "banking": false, "position": {"lat": 53.347777, "lng": -6.244239}, "available_bike_stands": 32, "last_update": 1458545218000, "bike_stands": 40, "number": 48, "name": "EXCISE WALK", "address": "Excise Walk"}, {"bonus": false, "contract_name": "Dublin", "available_bikes": 6, "status": "OPEN", "banking": false, "position": {"lat": 53.336074, "lng": -6.252825}, "available_bike_stands": 24, "last_update": 1458545227000, "bike_stands": 30, "number": 13, "name": "FITZWILLIAM SQUARE WEST", "address": "Fitzwilliam Square West"}, {"bonus": false, "contract_name": "Dublin", "available_bikes": 26, "status": "OPEN", "banking": false, "position": {"lat": 53.339983, "lng": -6.295594}, "available_bike_stands": 14, "last_update": 1458544912000, "bike_stands": 40, "number": 81, "name": "ST. JAMES HOSPITAL (CENTRAL)", "address": "St. James Hospital (Central)"}, {"bonus": false, "contract_name": "Dublin", "available_bikes": 7, "status": "OPEN", "banking": true, "position": {"lat": 53.344115, "lng": -6.237153}, "available_bike_stands": 33, "last_update": 1458545177000, "bike_stands": 40, "number": 68, "name": "HANOVER QUAY", "address": "Hanover Quay"}, {"bonus": false, "contract_name": "Dublin", "available_bikes": 23, "status": "OPEN", "banking": false, "position": {"lat": 53.343893, "lng": -6.280531}, "available_bike_stands": 7, "last_update": 1458545350000, "bike_stands": 30, "number": 74, "name": "OLIVER BOND STREET", "address": "Oliver Bond Street"}, {"bonus": false, "contract_name": "Dublin", "available_bikes": 21, "status": "OPEN", "banking": true, "position": {"lat": 53.347477, "lng": -6.28525}, "available_bike_stands": 17, "last_update": 1458545216000, "bike_stands": 38, "number": 87, "name": "COLLINS BARRACKS MUSEUM", "address": "Collins Barracks Museum"}, {"bonus": false, "contract_name": "Dublin", "available_bikes": 8, "status": "OPEN", "banking": false, "position": {"lat": 53.339005, "lng": -6.300217}, "available_bike_stands": 22, "last_update": 1458545060000, "bike_stands": 30, "number": 84, "name": "BROOKFIELD ROAD", "address": "Brookfield Road"}, {"bonus": false, "contract_name": "Dublin", "available_bikes": 1, "status": "OPEN", "banking": false, "position": {"lat": 53.336021, "lng": -6.26298}, "available_bike_stands": 32, "last_update": 1458545174000, "bike_stands": 33, "number": 54, "name": "CLONMEL STREET", "address": "Clonmel Street"}, {"bonus": false, "contract_name": "Dublin", "available_bikes": 17, "status": "OPEN", "banking": false, "position": {"lat": 53.336485, "lng": -6.248174}, "available_bike_stands": 13, "last_update": 1458545096000, "bike_stands": 30, "number": 20, "name": "JAMES STREET EAST", "address": "James Street East"}, {"bonus": false, "contract_name": "Dublin", "available_bikes": 16, "status": "OPEN", "banking": false, "position": {"lat": 53.33796, "lng": -6.24153}, "available_bike_stands": 24, "last_update": 1458545330000, "bike_stands": 40, "number": 56, "name": "MOUNT STREET LOWER", "address": "Mount Street Lower"}, {"bonus": false, "contract_name": "Dublin", "available_bikes": 2, "status": "OPEN", "banking": false, "position": {"lat": 53.343368, "lng": -6.27012}, "available_bike_stands": 18, "last_update": 1458545142000, "bike_stands": 20, "number": 6, "name": "CHRISTCHURCH PLACE", "address": "Christchurch Place"}, {"bonus": false, "contract_name": "Dublin", "available_bikes": 28, "status": "OPEN", "banking": true, "position": {"lat": 53.334123, "lng": -6.265436}, "available_bike_stands": 2, "last_update": 1458545351000, "bike_stands": 30, "number": 18, "name": "GRANTHAM STREET", "address": "Grantham Street"}, {"bonus": false, "contract_name": "Dublin", "available_bikes": 11, "status": "OPEN", "banking": false, "position": {"lat": 53.338755, "lng": -6.262003}, "available_bike_stands": 21, "last_update": 1458545364000, "bike_stands": 32, "number": 52, "name": "YORK STREET EAST", "address": "York Street East"}, {"bonus": false, "contract_name": "Dublin", "available_bikes": 11, "status": "OPEN", "banking": true, "position": {"lat": 53.330091, "lng": -6.268044}, "available_bike_stands": 19, "last_update": 1458545199000, "bike_stands": 30, "number": 43, "name": "PORTOBELLO ROAD", "address": "Portobello Road"}, {"bonus": false, "contract_name": "Dublin", "available_bikes": 15, "status": "OPEN", "banking": false, "position": {"lat": 53.350929, "lng": -6.265125}, "available_bike_stands": 5, "last_update": 1458545361000, "bike_stands": 20, "number": 31, "name": "PARNELL STREET", "address": "Parnell Street"}, {"bonus": false, "contract_name": "Dublin", "available_bikes": 3, "status": "OPEN", "banking": true, "position": {"lat": 53.341515, "lng": -6.256853}, "available_bike_stands": 37, "last_update": 1458545302000, "bike_stands": 40, "number": 98, "name": "FREDERICK STREET SOUTH", "address": "Frederick Street South"}, {"bonus": false, "contract_name": "Dublin", "available_bikes": 0, "status": "OPEN", "banking": false, "position": {"lat": 53.344603, "lng": -6.263371}, "available_bike_stands": 30, "last_update": 1458545081000, "bike_stands": 30, "number": 14, "name": "FOWNES STREET UPPER", "address": "Fownes Street Upper"}, {"bonus": false, "contract_name": "Dublin", "available_bikes": 13, "status": "OPEN", "banking": false, "position": {"lat": 53.340962, "lng": -6.262287}, "available_bike_stands": 16, "last_update": 1458545209000, "bike_stands": 29, "number": 1, "name": "CHATHAM STREET", "address": "Chatham Street"}, {"bonus": false, "contract_name": "Dublin", "available_bikes": 4, "status": "OPEN", "banking": true, "position": {"lat": 53.348279, "lng": -6.254662}, "available_bike_stands": 26, "last_update": 1458545286000, "bike_stands": 30, "number": 23, "name": "CUSTOM HOUSE", "address": "Custom House"}, {"bonus": false, "contract_name": "Dublin", "available_bikes": 2, "status": "OPEN", "banking": false, "position": {"lat": 53.344153, "lng": -6.233451}, "available_bike_stands": 38, "last_update": 1458544835000, "bike_stands": 40, "number": 90, "name": "BENSON STREET", "address": "Benson Street"}, {"bonus": false, "contract_name": "Dublin", "available_bikes": 1, "status": "OPEN", "banking": false, "position": {"lat": 53.341428, "lng": -6.24672}, "available_bike_stands": 34, "last_update": 1458545039000, "bike_stands": 35, "number": 63, "name": "FENIAN STREET", "address": "Fenian Street"}, {"bonus": false, "contract_name": "Dublin", "available_bikes": 20, "status": "OPEN", "banking": false, "position": {"lat": 53.341833, "lng": -6.231291}, "available_bike_stands": 10, "last_update": 1458545362000, "bike_stands": 30, "number": 91, "name": "SOUTH DOCK ROAD", "address": "South Dock Road"}, {"bonus": false, "contract_name": "Dublin", "available_bikes": 15, "status": "OPEN", "banking": true, "position": {"lat": 53.346867, "lng": -6.230852}, "available_bike_stands": 25, "last_update": 1458544969000, "bike_stands": 40, "number": 67, "name": "THE POINT", "address": "The Point"}, {"bonus": false, "contract_name": "Dublin", "available_bikes": 18, "status": "OPEN", "banking": false, "position": {"lat": 53.346026, "lng": -6.243576}, "available_bike_stands": 22, "last_update": 1458545019000, "bike_stands": 40, "number": 62, "name": "LIME STREET", "address": "Lime Street"}, {"bonus": false, "contract_name": "Dublin", "available_bikes": 30, "status": "OPEN", "banking": true, "position": {"lat": 53.342113, "lng": -6.310015}, "available_bike_stands": 10, "last_update": 1458544773000, "bike_stands": 40, "number": 97, "name": "KILMAINHAM GAOL", "address": "Kilmainham Gaol"}, {"bonus": false, "contract_name": "Dublin", "available_bikes": 15, "status": "OPEN", "banking": false, "position": {"lat": 53.347932, "lng": -6.240928}, "available_bike_stands": 25, "last_update": 1458545113000, "bike_stands": 40, "number": 49, "name": "GUILD STREET", "address": "Guild Street"}, {"bonus": false, "contract_name": "Dublin", "available_bikes": 3, "status": "OPEN", "banking": false, "position": {"lat": 53.334432, "lng": -6.245575}, "available_bike_stands": 27, "last_update": 1458545369000, "bike_stands": 30, "number": 19, "name": "HERBERT PLACE", "address": "Herbert Place"}, {"bonus": false, "contract_name": "Dublin", "available_bikes": 15, "status": "OPEN", "banking": false, "position": {"lat": 53.354929, "lng": -6.269425}, "available_bike_stands": 25, "last_update": 1458545363000, "bike_stands": 40, "number": 102, "name": "WESTERN WAY", "address": "Western Way"}, {"bonus": false, "contract_name": "Dublin", "available_bikes": 8, "status": "OPEN", "banking": false, "position": {"lat": 53.337132, "lng": -6.26059}, "available_bike_stands": 32, "last_update": 1458544876000, "bike_stands": 40, "number": 53, "name": "NEWMAN HOUSE", "address": "Newman House"}, {"bonus": false, "contract_name": "Dublin", "available_bikes": 13, "status": "OPEN", "banking": false, "position": {"lat": 53.350291, "lng": -6.273507}, "available_bike_stands": 17, "last_update": 1458544802000, "bike_stands": 30, "number": 101, "name": "KING STREET NORTH", "address": "King Street North"}, {"bonus": false, "contract_name": "Dublin", "available_bikes": 10, "status": "OPEN", "banking": false, "position": {"lat": 53.335742, "lng": -6.24551}, "available_bike_stands": 30, "last_update": 1458545210000, "bike_stands": 40, "number": 47, "name": "HERBERT STREET", "address": "Herbert Street"}, {"bonus": false, "contract_name": "Dublin", "available_bikes": 7, "status": "OPEN", "banking": false, "position": {"lat": 53.334019, "lng": -6.258371}, "available_bike_stands": 23, "last_update": 1458544937000, "bike_stands": 30, "number": 11, "name": "EARLSFORT TERRACE", "address": "Earlsfort Terrace"}, {"bonus": false, "contract_name": "Dublin", "available_bikes": 12, "status": "OPEN", "banking": false, "position": {"lat": 53.340803, "lng": -6.267732}, "available_bike_stands": 8, "last_update": 1458544994000, "bike_stands": 20, "number": 17, "name": "GOLDEN LANE", "address": "Golden Lane"}, {"bonus": false, "contract_name": "Dublin", "available_bikes": 18, "status": "OPEN", "banking": false, "position": {"lat": 53.351464, "lng": -6.255265}, "available_bike_stands": 12, "last_update": 1458545333000, "bike_stands": 30, "number": 45, "name": "DEVERELL PLACE", "address": "Deverell Place"}, {"bonus": false, "contract_name": "Dublin", "available_bikes": 9, "status": "OPEN", "banking": false, "position": {"lat": 53.343105, "lng": -6.277167}, "available_bike_stands": 22, "last_update": 1458545359000, "bike_stands": 31, "number": 72, "name": "JOHN STREET WEST", "address": "John Street West"}, {"bonus": false, "contract_name": "Dublin", "available_bikes": 4, "status": "OPEN", "banking": false, "position": {"lat": 53.346637, "lng": -6.246154}, "available_bike_stands": 26, "last_update": 1458545301000, "bike_stands": 30, "number": 99, "name": "CITY QUAY", "address": "City Quay"}, {"bonus": false, "contract_name": "Dublin", "available_bikes": 7, "status": "OPEN", "banking": false, "position": {"lat": 53.343034, "lng": -6.263578}, "available_bike_stands": 17, "last_update": 1458545144000, "bike_stands": 24, "number": 9, "name": "EXCHEQUER STREET", "address": "Exchequer Street"}, {"bonus": false, "contract_name": "Dublin", "available_bikes": 9, "status": "OPEN", "banking": false, "position": {"lat": 53.33403, "lng": -6.260714}, "available_bike_stands": 27, "last_update": 1458545244000, "bike_stands": 36, "number": 55, "name": "HATCH STREET", "address": "Hatch Street"}, {"bonus": false, "contract_name": "Dublin", "available_bikes": 32, "status": "OPEN", "banking": false, "position": {"lat": 53.330662, "lng": -6.260177}, "available_bike_stands": 8, "last_update": 1458545361000, "bike_stands": 40, "number": 5, "name": "CHARLEMONT PLACE", "address": "Charlemont Street"}, {"bonus": false, "contract_name": "Dublin", "available_bikes": 6, "status": "OPEN", "banking": true, "position": {"lat": 53.357043, "lng": -6.263232}, "available_bike_stands": 19, "last_update": 1458545271000, "bike_stands": 25, "number": 61, "name": "HARDWICKE PLACE", "address": "Hardwicke Place"}, {"bonus": false, "contract_name": "Dublin", "available_bikes": 23, "status": "OPEN", "banking": false, "position": {"lat": 53.348875, "lng": -6.267459}, "available_bike_stands": 6, "last_update": 1458545005000, "bike_stands": 29, "number": 77, "name": "WOLFE TONE STREET", "address": "Wolfe Tone Street"}, {"bonus": false, "contract_name": "Dublin", "available_bikes": 22, "status": "OPEN", "banking": true, "position": {"lat": 53.342081, "lng": -6.275233}, "available_bike_stands": 8, "last_update": 1458545352000, "bike_stands": 30, "number": 73, "name": "FRANCIS STREET", "address": "Francis Street"}, {"bonus": false, "contract_name": "Dublin", "available_bikes": 11, "status": "OPEN", "banking": false, "position": {"lat": 53.346874, "lng": -6.272976}, "available_bike_stands": 9, "last_update": 1458545326000, "bike_stands": 20, "number": 4, "name": "GREEK STREET", "address": "Greek Street"}, {"bonus": false, "contract_name": "Dublin", "available_bikes": 12, "status": "OPEN", "banking": true, "position": {"lat": 53.343565, "lng": -6.275071}, "available_bike_stands": 17, "last_update": 1458544821000, "bike_stands": 29, "number": 7, "name": "HIGH STREET", "address": "High Street"}, {"bonus": false, "contract_name": "Dublin", "available_bikes": 20, "status": "OPEN", "banking": true, "position": {"lat": 53.359624, "lng": -6.260348}, "available_bike_stands": 10, "last_update": 1458545289000, "bike_stands": 30, "number": 60, "name": "NORTH CIRCULAR ROAD", "address": "North Circular Road"}, {"bonus": false, "contract_name": "Dublin", "available_bikes": 1, "status": "OPEN", "banking": false, "position": {"lat": 53.350974, "lng": -6.25294}, "available_bike_stands": 39, "last_update": 1458545128000, "bike_stands": 40, "number": 38, "name": "TALBOT STREET", "address": "Talbot Street"}, {"bonus": false, "contract_name": "Dublin", "available_bikes": 13, "status": "OPEN", "banking": true, "position": {"lat": 53.339218, "lng": -6.240642}, "available_bike_stands": 26, "last_update": 1458545231000, "bike_stands": 40, "number": 58, "name": "SIR PATRICK DUN'S", "address": "Sir Patrick's Dun"}, {"bonus": false, "contract_name": "Dublin", "available_bikes": 7, "status": "OPEN", "banking": false, "position": {"lat": 53.347122, "lng": -6.234749}, "available_bike_stands": 33, "last_update": 1458545217000, "bike_stands": 40, "number": 66, "name": "NEW CENTRAL BANK", "address": "New Central Bank"}, {"bonus": false, "contract_name": "Dublin", "available_bikes": 0, "status": "CLOSED", "banking": false, "position": {"lat": 53.347508, "lng": -6.252192}, "available_bike_stands": 20, "last_update": 1454065289000, "bike_stands": 20, "number": 16, "name": "GEORGES QUAY", "address": "Georges Quay"}, {"bonus": false, "contract_name": "Dublin", "available_bikes": 2, "status": "OPEN", "banking": false, "position": {"lat": 53.341645, "lng": -6.29719}, "available_bike_stands": 20, "last_update": 1458544846000, "bike_stands": 22, "number": 82, "name": "MOUNT BROWN", "address": "Mount Brown"}, {"bonus": false, "contract_name": "Dublin", "available_bikes": 16, "status": "OPEN", "banking": true, "position": {"lat": 53.343897, "lng": -6.29706}, "available_bike_stands": 24, "last_update": 1458544858000, "bike_stands": 40, "number": 95, "name": "ROYAL HOSPITAL", "address": "Royal Hospital"}, {"bonus": false, "contract_name": "Dublin", "available_bikes": 25, "status": "OPEN", "banking": false, "position": {"lat": 53.346603, "lng": -6.296924}, "available_bike_stands": 15, "last_update": 1458545083000, "bike_stands": 40, "number": 93, "name": "HEUSTON STATION (CENTRAL)", "address": "Heuston Station (Central)"}, {"bonus": false, "contract_name": "Dublin", "available_bikes": 0, "status": "OPEN", "banking": false, "position": {"lat": 53.345922, "lng": -6.254614}, "available_bike_stands": 20, "last_update": 1458545302000, "bike_stands": 20, "number": 22, "name": "TOWNSEND STREET", "address": "Townsend Street"}, {"bonus": false, "contract_name": "Dublin", "available_bikes": 16, "status": "OPEN", "banking": false, "position": {"lat": 53.330362, "lng": -6.265163}, "available_bike_stands": 14, "last_update": 1458545348000, "bike_stands": 30, "number": 34, "name": "PORTOBELLO HARBOUR", "address": "Portobello Harbour"}, {"bonus": false, "contract_name": "Dublin", "available_bikes": 1, "status": "OPEN", "banking": false, "position": {"lat": 53.347884, "lng": -6.248048}, "available_bike_stands": 29, "last_update": 1458545367000, "bike_stands": 30, "number": 8, "name": "CUSTOM HOUSE QUAY", "address": "Custom House Quay"}, {"bonus": false, "contract_name": "Dublin", "available_bikes": 11, "status": "OPEN", "banking": false, "position": {"lat": 53.341288, "lng": -6.258117}, "available_bike_stands": 9, "last_update": 1458545338000, "bike_stands": 20, "number": 27, "name": "MOLESWORTH STREET", "address": "Molesworth Street"}, {"bonus": false, "contract_name": "Dublin", "available_bikes": 29, "status": "OPEN", "banking": false, "position": {"lat": 53.341805, "lng": -6.305085}, "available_bike_stands": 1, "last_update": 1458545355000, "bike_stands": 30, "number": 96, "name": "KILMAINHAM LANE", "address": "Kilmainham Lane"}, {"bonus": false, "contract_name": "Dublin", "available_bikes": 29, "status": "OPEN", "banking": false, "position": {"lat": 53.342296, "lng": -6.287661}, "available_bike_stands": 9, "last_update": 1458544820000, "bike_stands": 38, "number": 76, "name": "MARKET STREET SOUTH", "address": "Market Street South"}, {"bonus": false, "contract_name": "Dublin", "available_bikes": 11, "status": "OPEN", "banking": true, "position": {"lat": 53.337757, "lng": -6.267699}, "available_bike_stands": 29, "last_update": 1458545245000, "bike_stands": 40, "number": 71, "name": "KEVIN STREET", "address": "Kevin Street"}, {"bonus": false, "contract_name": "Dublin", "available_bikes": 27, "status": "OPEN", "banking": false, "position": {"lat": 53.358115, "lng": -6.265601}, "available_bike_stands": 0, "last_update": 1458544908000, "bike_stands": 27, "number": 79, "name": "ECCLES STREET EAST", "address": "Eccles Street East"}, {"bonus": false, "contract_name": "Dublin", "available_bikes": 12, "status": "OPEN", "banking": false, "position": {"lat": 53.342638, "lng": -6.238695}, "available_bike_stands": 28, "last_update": 1458545368000, "bike_stands": 40, "number": 69, "name": "GRAND CANAL DOCK", "address": "Grand Canal Dock"}, {"bonus": false, "contract_name": "Dublin", "available_bikes": 1, "status": "OPEN", "banking": false, "position": {"lat": 53.339434, "lng": -6.246548}, "available_bike_stands": 29, "last_update": 1458544828000, "bike_stands": 30, "number": 25, "name": "MERRION SQUARE EAST", "address": "Merrion Square East"}, {"bonus": false, "contract_name": "Dublin", "available_bikes": 7, "status": "OPEN", "banking": false, "position": {"lat": 53.339334, "lng": -6.264699}, "available_bike_stands": 33, "last_update": 1458544765000, "bike_stands": 40, "number": 51, "name": "YORK STREET WEST", "address": "York Street West"}, {"bonus": false, "contract_name": "Dublin", "available_bikes": 5, "status": "OPEN", "banking": true, "position": {"lat": 53.337494, "lng": -6.26199}, "available_bike_stands": 25, "last_update": 1458545168000, "bike_stands": 30, "number": 37, "name": "ST. STEPHEN'S GREEN SOUTH", "address": "St. Stephen's Green South"}, {"bonus": false, "contract_name": "Dublin", "available_bikes": 8, "status": "OPEN", "banking": false, "position": {"lat": 53.35561, "lng": -6.261397}, "available_bike_stands": 12, "last_update": 1458545102000, "bike_stands": 20, "number": 59, "name": "DENMARK STREET GREAT", "address": "Denmark Street Great"}, {"bonus": false, "contract_name": "Dublin", "available_bikes": 33, "status": "OPEN", "banking": false, "position": {"lat": 53.346985, "lng": -6.297804}, "available_bike_stands": 7, "last_update": 1458544908000, "bike_stands": 40, "number": 94, "name": "HEUSTON STATION (CAR PARK)", "address": "Heuston Station (Car Park)"}, {"bonus": false, "contract_name": "Dublin", "available_bikes": 5, "status": "OPEN", "banking": true, "position": {"lat": 53.337824, "lng": -6.256035}, "available_bike_stands": 35, "last_update": 1458545021000, "bike_stands": 40, "number": 36, "name": "ST. STEPHEN'S GREEN EAST", "address": "St. Stephen's Green East"}, {"bonus": false, "contract_name": "Dublin", "available_bikes": 3, "status": "OPEN", "banking": false, "position": {"lat": 53.359246, "lng": -6.269779}, "available_bike_stands": 17, "last_update": 1458545135000, "bike_stands": 20, "number": 12, "name": "ECCLES STREET", "address": "Eccles Street"}, {"bonus": false, "contract_name": "Dublin", "available_bikes": 36, "status": "OPEN", "banking": false, "position": {"lat": 53.359967, "lng": -6.264828}, "available_bike_stands": 4, "last_update": 1458545340000, "bike_stands": 40, "number": 78, "name": "MATER HOSPITAL", "address": "Mater Hospital"}, {"bonus": false, "contract_name": "Dublin", "available_bikes": 10, "status": "OPEN", "banking": true, "position": {"lat": 53.356769, "lng": -6.26814}, "available_bike_stands": 10, "last_update": 1458545057000, "bike_stands": 20, "number": 2, "name": "BLESSINGTON STREET", "address": "Blessington Street"}, {"bonus": false, "contract_name": "Dublin", "available_bikes": 10, "status": "OPEN", "banking": true, "position": {"lat": 53.339764, "lng": -6.251988}, "available_bike_stands": 10, "last_update": 1458545251000, "bike_stands": 20, "number": 26, "name": "MERRION SQUARE WEST", "address": "Merrion Square West"}, {"bonus": false, "contract_name": "Dublin", "available_bikes": 4, "status": "OPEN", "banking": true, "position": {"lat": 53.34744, "lng": -6.238523}, "available_bike_stands": 36, "last_update": 1458545154000, "bike_stands": 40, "number": 65, "name": "CONVENTION CENTRE", "address": "Convention Centre"}, {"bonus": false, "contract_name": "Dublin", "available_bikes": 0, "status": "OPEN", "banking": false, "position": {"lat": 53.355473, "lng": -6.264423}, "available_bike_stands": 16, "last_update": 1458544895000, "bike_stands": 16, "number": 15, "name": "HARDWICKE STREET", "address": "Hardwicke Street"}, {"bonus": false, "contract_name": "Dublin", "available_bikes": 24, "status": "OPEN", "banking": false, "position": {"lat": 53.347692, "lng": -6.278214}, "available_bike_stands": 6, "last_update": 1458544862000, "bike_stands": 30, "number": 35, "name": "SMITHFIELD", "address": "Smithfield"}, {"bonus": false, "contract_name": "Dublin", "available_bikes": 7, "status": "OPEN", "banking": true, "position": {"lat": 53.344007, "lng": -6.266802}, "available_bike_stands": 9, "last_update": 1458545186000, "bike_stands": 16, "number": 10, "name": "DAME STREET", "address": "Dame Street"}, {"bonus": false, "contract_name": "Dublin", "available_bikes": 6, "status": "OPEN", "banking": true, "position": {"lat": 53.345203, "lng": -6.247163}, "available_bike_stands": 34, "last_update": 1458545135000, "bike_stands": 40, "number": 64, "name": "SANDWITH STREET", "address": "Sandwith Street"}, {"bonus": false, "contract_name": "Dublin", "available_bikes": 17, "status": "OPEN", "banking": true, "position": {"lat": 53.349013, "lng": -6.260311}, "available_bike_stands": 6, "last_update": 1458545365000, "bike_stands": 23, "number": 33, "name": "PRINCES STREET / O'CONNELL STREET", "address": "Princes Street / O'Connell Street"}, {"bonus": false, "contract_name": "Dublin", "available_bikes": 5, "status": "OPEN", "banking": false, "position": {"lat": 53.339629, "lng": -6.243778}, "available_bike_stands": 18, "last_update": 1458545337000, "bike_stands": 23, "number": 57, "name": "GRATTAN STREET", "address": "Grattan Street"}, {"bonus": false, "contract_name": "Dublin", "available_bikes": 30, "status": "OPEN", "banking": false, "position": {"lat": 53.341359, "lng": -6.292951}, "available_bike_stands": 10, "last_update": 1458545345000, "bike_stands": 40, "number": 80, "name": "ST JAMES HOSPITAL (LUAS)", "address": "St James Hospital (Luas)"}, {"bonus": false, "contract_name": "Dublin", "available_bikes": 11, "status": "OPEN", "banking": false, "position": {"lat": 53.351182, "lng": -6.269859}, "available_bike_stands": 9, "last_update": 1458545170000, "bike_stands": 20, "number": 3, "name": "BOLTON STREET", "address": "Bolton Street"}, {"bonus": false, "contract_name": "Dublin", "available_bikes": 5, "status": "OPEN", "banking": true, "position": {"lat": 53.347082, "lng": -6.264192}, "available_bike_stands": 30, "last_update": 1458545354000, "bike_stands": 35, "number": 46, "name": "STRAND STREET GREAT", "address": "Strand Street Great"}, {"bonus": false, "contract_name": "Dublin", "available_bikes": 3, "status": "OPEN", "banking": true, "position": {"lat": 53.341655, "lng": -6.236198}, "available_bike_stands": 37, "last_update": 1458545229000, "bike_stands": 40, "number": 70, "name": "BARROW STREET", "address": "Barrow Street"}, {"bonus": false, "contract_name": "Dublin", "available_bikes": 16, "status": "OPEN", "banking": false, "position": {"lat": 53.356299, "lng": -6.258586}, "available_bike_stands": 14, "last_update": 1458545339000, "bike_stands": 30, "number": 28, "name": "MOUNTJOY SQUARE WEST", "address": "Mountjoy Square West"}, {"bonus": false, "contract_name": "Dublin", "available_bikes": 4, "status": "OPEN", "banking": true, "position": {"lat": 53.332383, "lng": -6.252717}, "available_bike_stands": 16, "last_update": 1458545359000, "bike_stands": 20, "number": 39, "name": "WILTON TERRACE", "address": "Wilton Terrace"}, {"bonus": false, "contract_name": "Dublin", "available_bikes": 5, "status": "OPEN", "banking": false, "position": {"lat": 53.34218, "lng": -6.254485}, "available_bike_stands": 25, "last_update": 1458545356000, "bike_stands": 30, "number": 21, "name": "LEINSTER STREET SOUTH", "address": "Leinster Street South"}, {"bonus": false, "contract_name": "Dublin", "available_bikes": 21, "status": "OPEN", "banking": true, "position": {"lat": 53.343456, "lng": -6.287409}, "available_bike_stands": 19, "last_update": 1458544836000, "bike_stands": 40, "number": 75, "name": "JAMES STREET", "address": "James Street"}, {"bonus": false, "contract_name": "Dublin", "available_bikes": 20, "status": "OPEN", "banking": true, "position": {"lat": 53.347972, "lng": -6.291804}, "available_bike_stands": 18, "last_update": 1458545310000, "bike_stands": 38, "number": 86, "name": "PARKGATE STREET", "address": "Parkgate Street"}, {"bonus": false, "contract_name": "Dublin", "available_bikes": 13, "status": "OPEN", "banking": false, "position": {"lat": 53.347106, "lng": -6.292041}, "available_bike_stands": 12, "last_update": 1458545102000, "bike_stands": 25, "number": 100, "name": "HEUSTON BRIDGE (SOUTH)", "address": "Heuston Bridge (South)"}, {"bonus": false, "contract_name": "Dublin", "available_bikes": 1, "status": "OPEN", "banking": false, "position": {"lat": 53.352149, "lng": -6.260533}, "available_bike_stands": 18, "last_update": 1458545299000, "bike_stands": 20, "number": 24, "name": "CATHAL BRUGHA STREET", "address": "Cathal Brugha Street"}, {"bonus": false, "contract_name": "Dublin", "available_bikes": 27, "status": "OPEN", "banking": true, "position": {"lat": 53.338776, "lng": -6.30395}, "available_bike_stands": 8, "last_update": 1458545301000, "bike_stands": 35, "number": 85, "name": "ROTHE ABBEY", "address": "Rothe Abbey"}, {"bonus": false, "contract_name": "Dublin", "available_bikes": 19, "status": "OPEN", "banking": false, "position": {"lat": 53.358437, "lng": -6.260641}, "available_bike_stands": 11, "last_update": 1458545279000, "bike_stands": 30, "number": 44, "name": "UPPER SHERRARD STREET", "address": "Upper Sherrard Street"}, {"bonus": false, "contract_name": "Dublin", "available_bikes": 4, "status": "OPEN", "banking": true, "position": {"lat": 53.335211, "lng": -6.2509}, "available_bike_stands": 36, "last_update": 1458545307000, "bike_stands": 40, "number": 89, "name": "FITZWILLIAM SQUARE EAST", "address": "Fitzwilliam Square East"}, {"bonus": false, "contract_name": "Dublin", "available_bikes": 10, "status": "OPEN", "banking": false, "position": {"lat": 53.332763, "lng": -6.257942}, "available_bike_stands": 10, "last_update": 1458545335000, "bike_stands": 20, "number": 41, "name": "HARCOURT TERRACE", "address": "Harcourt Terrace"}, {"bonus": false, "contract_name": "Dublin", "available_bikes": 8, "status": "OPEN", "banking": true, "position": {"lat": 53.3483, "lng": -6.266651}, "available_bike_stands": 13, "last_update": 1458545333000, "bike_stands": 21, "number": 40, "name": "JERVIS STREET", "address": "Jervis Street"}, {"bonus": false, "contract_name": "Dublin", "available_bikes": 19, "status": "OPEN", "banking": true, "position": {"lat": 53.346057, "lng": -6.268001}, "available_bike_stands": 10, "last_update": 1458545296000, "bike_stands": 29, "number": 29, "name": "ORMOND QUAY UPPER", "address": "Ormond Quay Upper"}, {"bonus": false, "contract_name": "Dublin", "available_bikes": 25, "status": "OPEN", "banking": false, "position": {"lat": 53.340714, "lng": -6.308191}, "available_bike_stands": 15, "last_update": 1458545360000, "bike_stands": 40, "number": 83, "name": "EMMET ROAD", "address": "Emmet Road"}, {"bonus": false, "contract_name": "Dublin", "available_bikes": 18, "status": "OPEN", "banking": false, "position": {"lat": 53.347802, "lng": -6.292432}, "available_bike_stands": 22, "last_update": 1458545345000, "bike_stands": 40, "number": 92, "name": "HEUSTON BRIDGE (NORTH)", "address": "Heuston Bridge (North)"}, {"bonus": false, "contract_name": "Dublin", "available_bikes": 7, "status": "OPEN", "banking": false, "position": {"lat": 53.3488, "lng": -6.281637}, "available_bike_stands": 22, "last_update": 1458545249000, "bike_stands": 30, "number": 88, "name": "BLACKHALL PLACE", "address": "Blackhall Place"}]